{
  "title": "九州家族旅行 2026｜陳林府 x 小刺wei",
  "authors": [
    {
      "initial": "E",
      "name": "Edna"
    },
    {
      "initial": "S",
      "name": "小姑"
    }
  ],
  "days": [
    {
      "day": 1,
      "city": "福岡",
      "landmarks": [
        {
          "cover": "./day1/teamLab.avif",
          "name": "王貞治棒球紀念館",
          "hours": "一-五 11:00–19:00\n六-日 10:00–19:00",
          "tags": [
            "推薦"
          ],
          "lat": 33.5954852,
          "lng": 130.3612042,
          "notes": [
            {
              "author": "S",
              "text": "感謝舅舅"
            }
          ]
        },
        {
          "cover": "",
          "name": "teamLab森林 福岡",
          "hours": "一-五 11:00–19:00\n六-日 10:00–19:00",
          "tags": [
            "不推"
          ],
          "lat": 33.5949959,
          "lng": 130.361135,
          "notes": [
            {
              "author": "E",
              "text": "幫大家避雷，比起東京、沖繩小很多，展館滿舊的互動設施不多"
            }
          ]
        },
        {
          "cover": "",
          "name": "MARK IS 福岡Momochi",
          "hours": "一-日 10:00–22:00",
          "tags": [
            "普通"
          ],
          "lat": 33.5922525,
          "lng": 130.3619629,
          "notes": [
            {
              "author": "E",
              "text": "旅遊順道採購可以，沒有特別精緻的櫃位，"
            },
            {
              "author": "S",
              "text": "感謝舅舅"
            }
          ]
        },
        {
          "cover": "",
          "name": "鰻魚四代目菊川 中洲春吉店",
          "hours": "一-日 11:00–15:00, 17:00–22:00",
          "tags": [
            "推薦",
            "包廂",
            "河景"
          ],
          "lat": 33.5901503,
          "lng": 130.4074259,
          "notes": [
            {
              "author": "E",
              "text": "可以不去，沒有特別精緻的櫃位，旅遊順道採購可以"
            },
            {
              "author": "S",
              "text": "感謝舅舅"
            }
          ]
        }
      ]
    },
    {
      "day": 2,
      "city": "福岡",
      "landmarks": [
        {
          "cover": "",
          "name": "LaLaport 福岡",
          "hours": "一-日 10:00–21:00",
          "tags": [
            "推薦",
            "必逛"
          ],
          "lat": 33.5651675,
          "lng": 130.4360705,
          "notes": [
            {
              "author": "E",
              "text": "愛逛的媽媽建議留半天以上，小孩還可以去玩具博物館玩❤️"
            },
            {
              "author": "S",
              "text": "感謝舅舅"
            }
          ]
        },
        {
          "cover": "",
          "name": "玩具博物館",
          "hours": "二-五 10:00–17:00\n週一休館",
          "tags": [
            "推薦",
            "木質玩具"
          ],
          "lat": 33.5653165,
          "lng": 130.4359725,
          "notes": [
            {
              "author": "E",
              "text": "入口在 LaLaport 一樓外側，玩具都非常有趣，小朋友可以在木製玩具遊樂場玩。需注意營業時間，比商場早打烊"
            }
          ]
        },
        {
          "cover": "",
          "name": "福岡麵包超人兒童博物館",
          "hours": "一-日 10:00–17:00",
          "tags": [
            "推薦"
          ],
          "lat": 33.5951049,
          "lng": 130.4058425,
          "notes": [
            {
              "author": "E",
              "text": "入口在 LaLaport 一樓外側，玩具都非常有趣，小朋友可以在木製玩具遊樂場玩。需注意營業時間，比商場早打烊"
            },
            {
              "author": "S",
              "text": "感謝舅舅"
            }
          ]
        },
        {
          "cover": "./day2/博多河岸購物中心.jpg",
          "name": "博多河岸購物中心",
          "hours": "一-日 10:00–19:00",
          "tags": [
            "推薦"
          ],
          "lat": 33.5951049,
          "lng": 130.4032676,
          "notes": [
            {
              "author": "E",
              "text": "位於麵包超人博物館正下方，選品店都很精彩，推薦留 1-2 小時在這邊充電回血"
            }
          ]
        },
        {
          "cover": "",
          "name": "川端通商店街",
          "hours": "一-日 16:00–00:00",
          "tags": [
            "?"
          ],
          "lat": 33.5947286,
          "lng": 130.4064185,
          "notes": [
            {
              "author": "S",
              "text": "感謝舅舅"
            }
          ]
        },
        {
          "cover": "./day2/燒肉垂榕.jpg",
          "name": "燒肉垂榕",
          "hours": "一-日 09:00–18:00",
          "tags": [
            "推薦"
          ],
          "lat": 33.5947286,
          "lng": 130.4064185,
          "notes": [
            {
              "author": "S",
              "text": "感謝舅舅"
            }
          ]
        }
      ]
    },
    {
      "day": 3,
      "city": "福岡",
      "landmarks": [
        {
          "cover": "",
          "name": "藍瓶咖啡 福岡店",
          "hours": "一-日 08:00–20:00",
          "tags": [
            "?"
          ],
          "lat": 33.5873868,
          "lng": 130.3970732,
          "notes": [
            {
              "author": "E",
              "text": "白天可以逛商店街，那珂川旁散步很舒服"
            },
            {
              "author": "S",
              "text": "超適合親子，商店街寬敞好推車"
            }
          ]
        },
        {
          "cover": "",
          "name": "警固神社",
          "hours": "一-日 06:30–18:00",
          "tags": [
            "推薦",
            "必吃"
          ],
          "lat": 33.5874291,
          "lng": 130.3974953,
          "notes": [
            {
              "author": "E",
              "text": "福岡最必去！豚骨拉麵配串燒，河邊氣氛超好"
            },
            {
              "author": "S",
              "text": "帶小孩去要早點（18:00），人少比較好坐"
            }
          ]
        },
        {
          "cover": "",
          "name": "海之中道 海洋世界",
          "hours": "一-日 09:30–17:30",
          "tags": [
            "推薦",
            "必吃"
          ],
          "lat": 33.660851,
          "lng": 130.3608381,
          "notes": [
            {
              "author": "E",
              "text": "福岡最必去！豚骨拉麵配串燒，河邊氣氛超好"
            },
            {
              "author": "S",
              "text": "帶小孩去要早點（18:00），人少比較好坐"
            }
          ]
        },
        {
          "cover": "",
          "name": "海之中道 海濱公園",
          "hours": "一-日 09:30–17:30",
          "tags": [
            "推薦",
            "必吃"
          ],
          "lat": 33.660851,
          "lng": 130.3608381,
          "notes": [
            {
              "author": "E",
              "text": "福岡最必去！豚骨拉麵配串燒，河邊氣氛超好"
            },
            {
              "author": "S",
              "text": "帶小孩去要早點（18:00），人少比較好坐"
            }
          ]
        }
      ]
    },
    {
      "day": 4,
      "city": "福岡 ➡️ 湯布院",
      "landmarks": [
        {
          "cover": "",
          "name": "太宰府天滿宮",
          "hours": "一-日 06:30–18:30",
          "tags": [
            "推薦",
            "親子友善"
          ],
          "lat": 33.5213697,
          "lng": 130.532249,
          "notes": [
            {
              "author": "E",
              "text": "超大公園，花田很美，租腳踏車繞一圈很舒服"
            },
            {
              "author": "S",
              "text": "動物區孩子瘋了！可以摸小動物，必來！"
            }
          ]
        },
        {
          "cover": "",
          "name": "湯布院老街",
          "hours": "大部分的店都 17;00 就關了",
          "tags": [
            "推薦"
          ],
          "lat": 33.2676287,
          "lng": 131.3644936,
          "notes": [
            {
              "author": "E",
              "text": "超大公園，花田很美，租腳踏車繞一圈很舒服"
            },
            {
              "author": "S",
              "text": "動物區孩子瘋了！可以摸小動物，必來！"
            }
          ]
        }
      ]
    },
    {
      "day": 5,
      "city": "湯布院 ➡️ 熊本",
      "landmarks": [
        {
          "cover": "",
          "name": "金鱗湖",
          "hours": "全天開放（清晨最美）",
          "tags": [
            "推薦"
          ],
          "lat": 33.2792,
          "lng": 131.0558,
          "notes": [
            {
              "author": "E",
              "text": "清晨霧氣升起像夢境，建議 7:00 前到，遊客少"
            },
            {
              "author": "S",
              "text": "小孩看到大錦鯉超興奮，湖邊鴨子也很可愛"
            }
          ]
        },
        {
          "cover": "",
          "name": "九州自然動物園",
          "hours": "一-日 08:50–16:00",
          "tags": [
            "推薦",
            "必買"
          ],
          "lat": 33.3509251,
          "lng": 131.4111909,
          "notes": [
            {
              "author": "E",
              "text": "布丁和霜淇淋超讚！各種湯布院限定土產在這裡買"
            },
            {
              "author": "S",
              "text": "手作雜貨很多，買了好多伴手禮"
            }
          ]
        },
        {
          "cover": "",
          "name": "AMU PLAZA 熊本",
          "hours": "一-日 10:00–20:00",
          "tags": [
            "推薦",
            "親子友善"
          ],
          "lat": 32.7890049,
          "lng": 130.686094,
          "notes": [
            {
              "author": "E",
              "text": "布丁和霜淇淋超讚！各種湯布院限定土產在這裡買"
            },
            {
              "author": "S",
              "text": "手作雜貨很多，買了好多伴手禮"
            }
          ]
        }
      ]
    },
    {
      "day": 6,
      "city": "熊本",
      "landmarks": [
        {
          "cover": "",
          "name": "SAKURA MACHI 櫻町熊本",
          "hours": "一-日 10:00–20:00",
          "tags": [
            "推薦"
          ],
          "lat": 32.8001831,
          "lng": 130.7038171,
          "notes": [
            {
              "author": "E",
              "text": "整修中但外觀仍壯觀，天守閣重建完成可進入參觀"
            },
            {
              "author": "S",
              "text": "歷史感很強，孩子對武士甲冑很感興趣"
            }
          ]
        },
        {
          "cover": "",
          "name": "熊本熊廣場",
          "hours": "一-日 10:00–19:00",
          "tags": [
            "必買"
          ],
          "lat": 32.801812,
          "lng": 130.7075841,
          "notes": [
            {
              "author": "E",
              "text": "熊本熊周邊在這裡買最齊全！官方 shop 就在這"
            },
            {
              "author": "S",
              "text": "在地品牌很多，比東京便宜，買了一堆"
            }
          ]
        }
      ]
    },
    {
      "day": 7,
      "city": "熊本",
      "landmarks": [
        {
          "cover": "",
          "name": "水前寺成趣園",
          "hours": "08:30–17:00",
          "tags": [
            "推薦",
            "親子友善"
          ],
          "lat": 32.799,
          "lng": 130.7325,
          "notes": [
            {
              "author": "E",
              "text": "縮小版富士山日式庭園，安靜優美，最後一天輕鬆散步"
            },
            {
              "author": "S",
              "text": "小孩在庭園追鴿子玩得很開心，門票便宜值得來"
            }
          ]
        }
      ]
    }
  ]
}
